 {
	"attractions": [{
		"id": "1",
		"name": "Willson Hall",
		"address": "400 Cedar Avenue",
		"city": "West Long Branch",
		"state": "New Jersey",
		"zip": "07764",
        "latitude": "40.279837",
        "longtitude": "-74.004807",
	},{
		"id": "2",
		"name": "Admissions",
		"address": "400 Cedar Avenue",
		"city": "West Long Branch",
		"state": "New Jersey",
		"zip": "07764",
        "latitude": "40.279837",
        "longtitude": "-74.004566",
	},{
		"id": "3",
		"name": "Erlanger Gardens",
		"address": "400 Cedar Avenue",
		"city": "West Long Branch",
		"state": "New Jersey",
		"zip": "07764",
        "latitude": "40.279541",
        "longtitude": "-74.005444",
	},{
		"id": "4",
		"name": "The Science Building and Howard Hall",
		"address": "400 Cedar Avenue",
		"city": "West Long Branch",
		"state": "New Jersey",
		"zip": "07764",
        "latitude": "40.278553",
        "longtitude": "-74.005300",
	},{
		"id": "5",
		"name": "Student Center",
		"address": "400 Cedar Avenue",
		"city": "West Long Branch",
		"state": "New Jersey",
		"zip": "07764",
        "latitude": "40.278875",
        "longtitude": "-74.006309",
	},{
		"id": "6",
		"name": "Pozycki Hall",
		"address": "400 Cedar Avenue",
		"city": "West Long Branch",
		"state": "New Jersey",
		"zip": "07764",
        "latitude": "40.278246",
        "longtitude": "-74.006363",
	},{
		"id": "7",
		"name": "Bey Hall",
		"address": "400 Cedar Avenue",
		"city": "West Long Branch",
		"state": "New Jersey",
		"zip": "07764",
        "latitude": "40.277737",
        "longtitude": "-74.006077",
	},{
		"id": "8",
		"name": "Kessler Field",
	  "address": "400 Cedar Avenue",
		"city": "West Long Branch",
		"state": "New Jersey",
		"zip": "07764",
        "latitude": "40.279363",
        "longtitude": "-74.009341",
	},{
		"id": "9",
		"name": "MAC",
		"address": "400 Cedar Avenue",
		"city": "West Long Branch",
		"state": "New Jersey",
		"zip": "07764",
        "latitude": "40.279498",
        "longtitude": "-74.007548",
	},{
		"id": "10",
		"name": "Joan & Robert Rechnitz Hall",
		"address": "400 Cedar Avenue",
		"city": "West Long Branch",
		"state": "New Jersey",
		"zip": "07764",
        "latitude": "40.279949",
        "longtitude": "-74.006339",
	},{
		"id": "11",
		"name": "Plangere Center",
		"address": "400 Cedar Avenue",
		"city": "West Long Branch",
		"state": "New Jersey",
		"zip": "07764",
        "latitude": "40.280561",
        "longtitude": "-74.006395",
	},{
		"id": "12",
		"name": "McAllan Hall",
		"address": "400 Cedar Avenue",
		"city": "West Long Branch",
		"state": "New Jersey",
		"zip": "07764",
        "latitude": "40.281131",
        "longtitude": "-74.006583",
	},{
		"id": "13",
		"name": "Underpass",
		"address": "400 Cedar Avenue",
		"city": "West Long Branch",
		"state": "New Jersey",
		"zip": "07764",
        "latitude": "40.282158",
        "longtitude": "-74.005095",
	},{
		"id": "14",
		"name": "Mullaney Hall",
		"address": "400 Cedar Avenue",
		"city": "West Long Branch",
		"state": "New Jersey",
		"zip": "07764",
        "latitude": "40.282182",
        "longtitude": "-74.006476",
	},{
		"id": "15",
		"name": "Library",
		"address": "400 Cedar Avenue",
		"city": "West Long Branch",
		"state": "New Jersey",
		"zip": "07764",
        "latitude": "40.282751",
        "longtitude": "-74.002753",
	},{
		"id": "16",
		"name": "Magill Dining Hall",
		"address": "400 Cedar Avenue",
		"city": "West Long Branch",
		"state": "New Jersey",
		"zip": "07764",
        "latitude": "40.280346",
        "longtitude": "-74.003865",
	},{
		"id": "17",
		"name": "Woods Theater",
		"address": "400 Cedar Avenue",
		"city": "West Long Branch",
		"state": "New Jersey",
		"zip": "07764",
        "latitude": "40.280413",
        "longtitude": "-74.001085",
	},{
		"id": "18",
		"name": "Pier Village",
		"address": " 50 Chelsea Ave",
		"city": "Long Branch",
		"state": "New Jersey",
		"zip": "07740",
        "latitude": "40.301911",
        "longtitude": "-73.978774",
	}]
}
